[{"idLieu":5,"nomLieu":"Op\u00e9ra de Lille","lat":"50.63745","lon":"3.06511","image":"1676389184-63ebab40883bc2.30897920-opera.jpg","adresse":"Place du Th\u00e9\u00e2tre\r\nEn 1907 Le projet laur\u00e9at de l\u2019architecte Louis-Marie Cordonnier se distingue par la volont\u00e9 de reproduire une salle \u00e0 l\u2019italienne. C\u2019est l\u2019une des derni\u00e8res salles de ce type construites en France.","idQuestion":1,"question":"Suite \u00e0 un incendie de l'op\u00e9ra de Lille en quelle ann\u00e9e a-t-il \u00e9t\u00e9 reconstruit ?","choix1":"1903","choix2":"1907","choix3":"1923","choix4":"1941","reponse":"2"},{"idLieu":6,"nomLieu":"Maison natale Charles de Gaulle","lat":"50.64600","lon":"3.05868","image":"1676905666-63f38cc27e0c89.92574111-degaulle.jpg","adresse":"9 rue Princesse\r\nCharles de Gaulle est n\u00e9 \u00e0 Lille le 22 novembre 1890, dans la maison de ses grands-parents maternels, au 9 rue Princesse. Rachet\u00e9e par la Fondation Charles de Gaulle en 1992, cette maison est transform\u00e9e en mus\u00e9e qui est g\u00e9r\u00e9 depuis 2014 ","idQuestion":2,"question":"\u00c0 qui appartenait cette maison o\u00f9 est n\u00e9 Charles de Gaulle ?","choix1":"1. \u00c0 sa tante.","choix2":"2. \u00c0 ses grands-parents","choix3":"3. \u00c0 son arri\u00e8re-grand-p\u00e8re","choix4":"4. \u00c0 ses parents","reponse":"2.\u00c0 ses grands-parents"},{"idLieu":null,"nomLieu":"Mairie","lat":"50.63093","lon":"3.0709","image":"1675952987-63e5035b023e04.20538368-mairie.jpg","adresse":"Mairie de Lille","idQuestion":null,"question":null,"choix1":null,"choix2":null,"choix3":null,"choix4":null,"reponse":null},{"idLieu":null,"nomLieu":"beaux-arts","lat":"50.63079","lon":"3.06211","image":"1675954352-63e508b0b3cf16.60390315-beauxarts.jpg","adresse":"Place de la R\u00e9publique\r\nCr\u00e9\u00e9 en 1792 sous l'impulsion du peintre Louis Joseph Watteau, le fonds initial du mus\u00e9e est constitu\u00e9 d'\u0153uvres confisqu\u00e9es aux \u00e9migr\u00e9s et aux institutions religieuses de la ville au lendemain de la R\u00e9volution, parmi lesquelles plu","idQuestion":null,"question":null,"choix1":null,"choix2":null,"choix3":null,"choix4":null,"reponse":null},{"idLieu":null,"nomLieu":"citadelle","lat":"50.6409","lon":"3.0446","image":"1675954452-63e509141bfd94.09603968-citadelle.jpg","adresse":"Avenue du 43e r\u00e9giment d'infanterie","idQuestion":null,"question":null,"choix1":null,"choix2":null,"choix3":null,"choix4":null,"reponse":null}]
