[{"idLieu":5,"nomLieu":"Op\u00e9ra de Lille","lat":"50.63745","lon":"3.06511","image":"1676389184-63ebab40883bc2.30897920-opera.jpg","adresse":"Place du Th\u00e9\u00e2tre","idQuestion":1,"question":"Lorem Ipsum is simply dummy text of the printing and typesetting industry. Lorem Ipsum has been the industry's standard dummy text ever since the 1500s ?","choix1":"r\u00e9ponse 1","choix2":"r\u00e9ponse 2","choix3":"r\u00e9ponse 3","choix4":"r\u00e9ponse 4","reponse":"2"},{"idLieu":6,"nomLieu":"Mus\u00e9e Charles de Gaulle","lat":"50.64600","lon":"3.05868","image":"1676905666-63f38cc27e0c89.92574111-degaulle.jpg","adresse":"9 rue Princesse","idQuestion":2,"question":"Ici doit se trouver une question ?","choix1":"la r\u00e9ponse 1","choix2":"la r\u00e9ponse 2 (bonne r\u00e9ponse)","choix3":"la r\u00e9ponse 3","choix4":"la r\u00e9ponse 4","reponse":"2"},{"idLieu":7,"nomLieu":"Wazemmes","lat":"50.62618","lon":"3.04965","image":"1678287138-6408a1226a7686.27482158-wazemmes.jpg","adresse":"March\u00e9 de Wazemmes","idQuestion":3,"question":"Ici se trouve une question","choix1":"r\u00e9ponse 1","choix2":"r\u00e9ponse 2","choix3":"r\u00e9ponse 3","choix4":"r\u00e9ponse 4","reponse":"3"},{"idLieu":null,"nomLieu":"Mairie","lat":"50.63093","lon":"3.0709","image":"1675952987-63e5035b023e04.20538368-mairie.jpg","adresse":"Mairie de Lille","idQuestion":null,"question":null,"choix1":null,"choix2":null,"choix3":null,"choix4":null,"reponse":null},{"idLieu":null,"nomLieu":"beauxarts","lat":"50.63079","lon":"3.06211","image":"1675954352-63e508b0b3cf16.60390315-beauxarts.jpg","adresse":"Place de la R\u00e9publique","idQuestion":null,"question":null,"choix1":null,"choix2":null,"choix3":null,"choix4":null,"reponse":null},{"idLieu":null,"nomLieu":"citadelle","lat":"50.6409","lon":"3.0446","image":"1675954452-63e509141bfd94.09603968-citadelle.jpg","adresse":"Avenue du 43e r\u00e9giment d'infanterie","idQuestion":null,"question":null,"choix1":null,"choix2":null,"choix3":null,"choix4":null,"reponse":null}]